{
    "nodes":[
       {
          "name":"Alcantara Municipal Hall",
          "landmark_type":"Municipal Halls",
          "location":"Alcantara",
          "latitude":"9.970343842",
          "longitude":"123.4022381"
       },
       {
          "name":"Kugtong Spring",
          "landmark_type":"Tourist Spots",
          "location":"Alcantara",
          "latitude":"9.971046699",
          "longitude":"123.4045866"
       },
       {
          "name":"Saint Augustine Parish",
          "landmark_type":"Churches",
          "location":"Alcantara",
          "latitude":"9.969401626",
          "longitude":"123.4036673"
       },
       {
          "name":"Alegria Municipal Hall",
          "landmark_type":"Municipal halls",
          "location":"Alegria",
          "latitude":"9.729394617",
          "longitude":"123.3401148"
       },
       {
          "name":"Cambais Falls",
          "landmark_type":"Tourist Spots",
          "location":"Alegria",
          "latitude":"9.748387385",
          "longitude":"123.3892513"
       },
       {
          "name":"Montepellier Falls",
          "landmark_type":"Tourist Spots",
          "location":"Alegria",
          "latitude":"9.723129003",
          "longitude":"123.3573636"
       },
       {
          "name":"Aloguinsan Municipal Hall",
          "landmark_type":"Municipal Halls",
          "location":"Aloguinsan",
          "latitude":"10.22329869",
          "longitude":"123.5482623"
       },
       {
          "name":"Bojo River Cruise",
          "landmark_type":"Tourist Spots",
          "location":"Aloguinsan",
          "latitude":"10.20598777",
          "longitude":"123.5450666"
       },
       {
          "name":"Saint Raphael the Archangel Parish",
          "landmark_type":"Churches",
          "location":"Aloguinsan",
          "latitude":"10.2204904",
          "longitude":"123.5496212"
       },
       {
          "name":"Argao Municipal Hall",
          "landmark_type":"Barangay Halls",
          "location":"Argao",
          "latitude":"9.881199169",
          "longitude":"123.6086297"
       },
       {
          "name":"Philippine Science High School - Central Visayas Campus",
          "landmark_type":"Schools",
          "location":"Argao",
          "latitude":"9.89951538",
          "longitude":"123.5859571"
       },
       {
          "name":"Liki Spring",
          "landmark_type":"Tourist Spots",
          "location":"Argao",
          "latitude":"9.951965051",
          "longitude":"123.6155244"
       },
       {
          "name":"Asturias Municipal Hall",
          "landmark_type":"Municipal Hall",
          "location":"Asturias",
          "latitude":"10.56756158",
          "longitude":"123.7156121"
       },
       {
          "name":"Bago Health Center",
          "landmark_type":"Health Centers",
          "location":"Asturias",
          "latitude":"10.62569022",
          "longitude":"123.763959"
       },
       {
          "name":"Badian Municipal Hall",
          "landmark_type":"Municipal Halls",
          "location":"Badian",
          "latitude":"9.870155264",
          "longitude":"123.3987773"
       },
       {
          "name":"Kawasan Falls",
          "landmark_type":"Tourist Spots",
          "location":"Badian",
          "latitude":"9.802320908",
          "longitude":"123.3743115"
       },
       {
          "name":"St. James Parish",
          "landmark_type":"Churches",
          "location":"Badian",
          "latitude":"9.870216733",
          "longitude":"123.3999919"
       },
       {
          "name":"Balamban Municipal Hall",
          "landmark_type":"Municipal Hall",
          "location":"Balamban",
          "latitude":"10.5060407",
          "longitude":"123.713259"
       },
       {
          "name":"Gaisano Grand Mall Balamban",
          "landmark_type":"Malls/department stores",
          "location":"Balamban",
          "latitude":"10.49326799",
          "longitude":"123.7147048"
       },
       {
          "name":"Barili Municipal Hall",
          "landmark_type":"Municipal Halls",
          "location":"Barili",
          "latitude":"10.11631227",
          "longitude":"123.5097415"
       },
       {
          "name":"St. Anne Parish",
          "landmark_type":"Churches",
          "location":"Barili",
          "latitude":"10.12187867",
          "longitude":"123.5393259"
       },
       {
          "name":"Bogo City Hall",
          "landmark_type":"City halls",
          "location":"Bogo",
          "latitude":"11.04659032",
          "longitude":"123.9794421"
       },
       {
          "name":"Cebu Provincial Hospital (Bogo City)",
          "landmark_type":"Hospitals",
          "location":"Bogo",
          "latitude":"11.04665301",
          "longitude":"123.9942467"
       },
       {
          "name":"Bogo Pantalan",
          "landmark_type":"Ports",
          "location":"Bogo",
          "latitude":"11.05528781",
          "longitude":"124.0025286"
       },
       {
          "name":"Archdiocesan Shrine of St. Vincent Ferrer",
          "landmark_type":"Churches",
          "location":"Bogo",
          "latitude":"11.04851711",
          "longitude":"124.0081079"
       },
       {
          "name":"Borbon Municipal Hall",
          "landmark_type":"Municipal Hall",
          "location":"Borbon",
          "latitude":"10.83787664",
          "longitude":"124.0309098"
       },
       {
          "name":"Poblacion Brgy Hall",
          "landmark_type":"Barangay halls",
          "location":"Borbon",
          "latitude":"10.83821113",
          "longitude":"124.0273502"
       },
       {
          "name":"Cadaruhan Barangay Hall",
          "landmark_type":"Barangay halls",
          "location":"Borbon",
          "latitude":"10.84645725",
          "longitude":"124.0360435"
       },
       {
          "name":"Lahug Barangay Hall",
          "landmark_type":"Barangay halls",
          "location":"Brgy. Lahug",
          "latitude":"10.32422868",
          "longitude":"123.8985402"
       },
       {
          "name":"JY Square Mall",
          "landmark_type":"Malls/department stores",
          "location":"Brgy. Lahug",
          "latitude":"10.33059259",
          "longitude":"123.8988684"
       },
       {
          "name":"University of the Philippines Cebu",
          "landmark_type":"Schools",
          "location":"Brgy. Lahug",
          "latitude":"10.3222492",
          "longitude":"123.898206"
       },
       {
          "name":"Carmen Municipal Hall",
          "landmark_type":"Municipal Hall",
          "location":"Carmen",
          "latitude":"10.58748729",
          "longitude":"124.017341"
       },
       {
          "name":"Luyang Barangay Hall",
          "landmark_type":"Barangay halls",
          "location":"Carmen",
          "latitude":"10.60501695",
          "longitude":"124.02476"
       },
       {
          "name":"Carmen Rural Health Unit",
          "landmark_type":"Health Centers",
          "location":"Carmen",
          "latitude":"10.58771906",
          "longitude":"124.0174319"
       },
       {
          "name":"Catmon Municipal Hall",
          "landmark_type":"Municipal Hall",
          "location":"Catmon",
          "latitude":"10.72348318",
          "longitude":"124.0134878"
       },
       {
          "name":"Catmondaan Barangay Hall",
          "landmark_type":"Barangay halls",
          "location":"Catmon",
          "latitude":"10.68674452",
          "longitude":"124.0153363"
       },
       {
          "name":"Catmon Health Center",
          "landmark_type":"Health Centers",
          "location":"Catmon",
          "latitude":"10.7218649",
          "longitude":"124.0139682"
       },
       {
          "name":"City Hall, Cebu City, Cebu",
          "landmark_type":"City halls",
          "location":"Cebu City",
          "latitude":"10.29295873",
          "longitude":"123.9015526"
       },
       {
          "name":"Talamban Barangay Hall",
          "landmark_type":"Barangay halls",
          "location":"Cebu City",
          "latitude":"10.36999562",
          "longitude":"123.9184437"
       },
       {
          "name":"Cebu City Medical Center",
          "landmark_type":"Health Centers",
          "location":"Cebu City",
          "latitude":"10.298447",
          "longitude":"123.8936293"
       },
       {
          "name":"University of Cebu Medical Center - UCMed",
          "landmark_type":"Hospitals",
          "location":"Cebu City",
          "latitude":"10.32321481",
          "longitude":"123.9302047"
       },
       {
          "name":"Perpetual Succour Hospital",
          "landmark_type":"Hospitals",
          "location":"Cebu City",
          "latitude":"10.31556317",
          "longitude":"123.9004102"
       },
       {
          "name":"Compostela Municipal Hall",
          "landmark_type":"Municipal Hall",
          "location":"Compostela",
          "latitude":"10.45404848",
          "longitude":"124.0125571"
       },
       {
          "name":"Barangay Cogon Barangay Hall",
          "landmark_type":"Barangay halls",
          "location":"Compostela",
          "latitude":"10.45795549",
          "longitude":"124.0093837"
       },
       {
          "name":"Compostela Birthing Center",
          "landmark_type":"Health Centers",
          "location":"Compostela",
          "latitude":"10.47194488",
          "longitude":"123.9967859"
       },
       {
          "name":"Consolacion Municipal Hall",
          "landmark_type":"Municipal Hall",
          "location":"Consolacion",
          "latitude":"10.37581859",
          "longitude":"123.9572968"
       },
       {
          "name":"Pitogo Barangay Hall",
          "landmark_type":"Barangay halls",
          "location":"Consolacion",
          "latitude":"10.38301209",
          "longitude":"123.9718162"
       },
       {
          "name":"Consolacion Municipal Health Center",
          "landmark_type":"Health Centers",
          "location":"Consolacion",
          "latitude":"10.37854104",
          "longitude":"123.9675271"
       },
       {
          "name":"Cordova Municipal Hall",
          "landmark_type":"Municipal Hall",
          "location":"Cordova",
          "latitude":"10.25202794",
          "longitude":"123.9496945"
       },
       {
          "name":"Gabi Barangay Hall",
          "landmark_type":"Barangay halls",
          "location":"Cordova",
          "latitude":"10.26360845",
          "longitude":"123.9616483"
       },
       {
          "name":"Ibabao Barangay Hall",
          "landmark_type":"Barangay halls",
          "location":"Cordova",
          "latitude":"10.27080679",
          "longitude":"123.9472292"
       },
       {
          "name":"Daanbantayan Municipal Hall",
          "landmark_type":"Municipal Hall",
          "location":"Daanbantayan",
          "latitude":"11.25037675",
          "longitude":"123.9982622"
       },
       {
          "name":"Daanbantayan District Hospital",
          "landmark_type":"Hospitals",
          "location":"Daanbantayan",
          "latitude":"11.24570066",
          "longitude":"124.0105793"
       },
       {
          "name":"Daanbantayan Municipal Health Office and Birthing Center",
          "landmark_type":"Health Centers",
          "location":"Daanbantayan",
          "latitude":"11.25067614",
          "longitude":"123.9989892"
       },
       {
          "name":"Dalaguete Municipal Hall",
          "landmark_type":"Municipal Halls",
          "location":"Dalaguete",
          "latitude":"9.761887222",
          "longitude":"123.532996"
       },
       {
          "name":"Obong Watchtower Ruins",
          "landmark_type":"Tourist Spots",
          "location":"Dalaguete",
          "latitude":"9.741332776",
          "longitude":"123.513516"
       },
       {
          "name":"San Guillermo Church",
          "landmark_type":"Churches",
          "location":"Dalaguete",
          "latitude":"9.762583956",
          "longitude":"123.5352285"
       },
       {
          "name":"Goldship Learning Center",
          "landmark_type":"Schools",
          "location":"Danao",
          "latitude":"10.53085329",
          "longitude":"124.0196249"
       },
       {
          "name":"Hosanna Learning Center",
          "landmark_type":"Schools",
          "location":"Danao",
          "latitude":"10.51454457",
          "longitude":"124.0268036"
       },
       {
          "name":"Little Light Learning Center",
          "landmark_type":"Schools",
          "location":"Danao",
          "latitude":"10.53072675",
          "longitude":"124.0193527"
       },
       {
          "name":"Manto Memorial Foundation College - Bonifacio",
          "landmark_type":"Schools",
          "location":"Danao",
          "latitude":"10.52149356",
          "longitude":"124.0265955"
       },
       {
          "name":"Dumanjug Municipal Hall",
          "landmark_type":"Municipal Halls",
          "location":"Dumanjug",
          "latitude":"10.05703326",
          "longitude":"123.4358625"
       },
       {
          "name":"Pityak Falls (Tubod-Duguan Falls)",
          "landmark_type":"Tourist Spots",
          "location":"Dumanjug",
          "latitude":"10.02370244",
          "longitude":"123.5105138"
       },
       {
          "name":"St. Francis of Assisi Parish Church",
          "landmark_type":"Churches",
          "location":"Dumanjug",
          "latitude":"10.05753159",
          "longitude":"123.4346021"
       },
       {
          "name":"Barangay Mactan Health Center",
          "landmark_type":"Health Centers",
          "location":"Lapu-lapu",
          "latitude":"10.30869931",
          "longitude":"124.0109905"
       },
       {
          "name":"Barangay Pajo Health Center And Birthing Home",
          "landmark_type":"Health Centers",
          "location":"Lapu-lapu",
          "latitude":"10.31230144",
          "longitude":"123.9586963"
       },
       {
          "name":"Looc Health Center",
          "landmark_type":"Health Centers",
          "location":"Lapu-lapu",
          "latitude":"10.30580995",
          "longitude":"123.9464072"
       },
       {
          "name":"Carajay Health Center",
          "landmark_type":"Health Centers",
          "location":"Lapu-lapu",
          "latitude":"10.29503721",
          "longitude":"123.9496502"
       },
       {
          "name":"Calawisan Health Center",
          "landmark_type":"Health Centers",
          "location":"Lapu-lapu",
          "latitude":"10.2837299",
          "longitude":"123.9381152"
       },
       {
          "name":"Liloan Community Medical Center",
          "landmark_type":"Health Centers",
          "location":"Liloan",
          "latitude":"10.38431939",
          "longitude":"123.9769243"
       },
       {
          "name":"Barangay Catarman Health Center - 1",
          "landmark_type":"Health Centers",
          "location":"Liloan",
          "latitude":"10.38674966",
          "longitude":"124.0103504"
       },
       {
          "name":"Rn-Rm's Birthing Center",
          "landmark_type":"Health Centers",
          "location":"Liloan",
          "latitude":"10.38915972",
          "longitude":"124.0010443"
       },
       {
          "name":"Mandaue City Hall",
          "landmark_type":"Municipal Hall",
          "location":"Mandaue",
          "latitude":"10.32764696",
          "longitude":"123.94301"
       },
       {
          "name":"Mandaue City Police Office - Police Station 3",
          "landmark_type":"Police stations",
          "location":"Mandaue",
          "latitude":"10.36681041",
          "longitude":"123.9520527"
       },
       {
          "name":"Mandaue City Municipal Cemetery",
          "landmark_type":"Cemeteries",
          "location":"Mandaue",
          "latitude":"10.3316984",
          "longitude":"123.9372308"
       },
       {
          "name":"Parkmall",
          "landmark_type":"Malls/department stores",
          "location":"Mandaue",
          "latitude":"10.32477282",
          "longitude":"123.9348013"
       },
       {
          "name":"Pacific Mall Bus Stop",
          "landmark_type":"Bus terminals",
          "location":"Mandaue",
          "latitude":"10.34029254",
          "longitude":"123.9504812"
       },
       {
          "name":"Bogo-Medellin Medical Center",
          "landmark_type":"Hospitals",
          "location":"Medellin",
          "latitude":"11.10890117",
          "longitude":"123.9753045"
       },
       {
          "name":"Medellin Municipal Hall",
          "landmark_type":"Municipal Hall",
          "location":"Medellin",
          "latitude":"11.12866468",
          "longitude":"123.961347"
       },
       {
          "name":"Aisle of Medellin",
          "landmark_type":"Tourist Spots",
          "location":"Medellin",
          "latitude":"11.12631645",
          "longitude":"123.99483"
       },
       {
          "name":"Minglanilla District Hospital",
          "landmark_type":"Hospitals",
          "location":"Minglanilla",
          "latitude":"10.24907351",
          "longitude":"123.8040153"
       },
       {
          "name":"Minglanilla Police Station",
          "landmark_type":"Police stations",
          "location":"Minglanilla",
          "latitude":"10.24584189",
          "longitude":"123.7954601"
       },
       {
          "name":"Minglanilla Municipal Hall",
          "landmark_type":"Municipal Halls",
          "location":"Minglanilla",
          "latitude":"10.2461",
          "longitude":"123.7956"
       },
       {
          "name":"Moalboal Municipal Hall",
          "landmark_type":"Municipal Halls",
          "location":"Moalboal",
          "latitude":"9.936735591",
          "longitude":"123.391913"
       },
       {
          "name":"Moalboal Fire Station",
          "landmark_type":"Fire Stations",
          "location":"Moalboal",
          "latitude":"9.935450034",
          "longitude":"123.3922939"
       },
       {
          "name":"Moalboal Municipal Police Station",
          "landmark_type":"Police Stations",
          "location":"Moalboal",
          "latitude":"9.936448302",
          "longitude":"123.3925668"
       },
       {
          "name":"Cebu South General Hospital",
          "landmark_type":"Hospitals",
          "location":"Naga",
          "latitude":"10.23200223",
          "longitude":"123.7711808"
       },
       {
          "name":"City Hall of Naga",
          "landmark_type":"City Halls",
          "location":"Naga",
          "latitude":"10.20708715",
          "longitude":"123.7598565"
       },
       {
          "name":"City of Naga Boardwalk",
          "landmark_type":"Tourist Spots",
          "location":"Naga",
          "latitude":"10.20868079",
          "longitude":"123.7606952"
       },
       {
          "name":"City of Naga National High School",
          "landmark_type":"Schools",
          "location":"Naga",
          "latitude":"10.20888709",
          "longitude":"123.7548733"
       },
       {
          "name":"Oslob Municipal Hall",
          "landmark_type":"Municipal Halls",
          "location":"Oslob",
          "latitude":"9.520672401",
          "longitude":"123.4336925"
       },
       {
          "name":"Oslob Police Station",
          "landmark_type":"Police Stations",
          "location":"Oslob",
          "latitude":"9.521403427",
          "longitude":"123.4307954"
       },
       {
          "name":"Oslob Fire Station",
          "landmark_type":"Fire Stations",
          "location":"Oslob",
          "latitude":"9.521226029",
          "longitude":"123.4318685"
       },
       {
          "name":"Oslob District Hospital",
          "landmark_type":"Hospitals",
          "location":"Oslob",
          "latitude":"9.526323863",
          "longitude":"123.4332188"
       },
       {
          "name":"Pinamungahan Municipal Hall",
          "landmark_type":"Municipal Halls",
          "location":"Pinamungahan",
          "latitude":"10.27000681",
          "longitude":"123.584308"
       },
       {
          "name":"Pinamungahan Public Market",
          "landmark_type":"Markets",
          "location":"Pinamungahan",
          "latitude":"10.27111813",
          "longitude":"123.5839934"
       },
       {
          "name":"Pinamungahan District Hospital",
          "landmark_type":"Hospitals",
          "location":"Pinamungahan",
          "latitude":"10.28579963",
          "longitude":"123.5878378"
       },
       {
          "name":"Ronda Municipal Hall",
          "landmark_type":"Municipal Halls",
          "location":"Ronda",
          "latitude":"10.0007302",
          "longitude":"123.4090491"
       },
       {
          "name":"Ronda Public Market",
          "landmark_type":"Markets",
          "location":"Ronda",
          "latitude":"10.00020629",
          "longitude":"123.4116062"
       },
       {
          "name":"Ronda Rural Health Unit",
          "landmark_type":"Health Centers",
          "location":"Ronda",
          "latitude":"10.00030725",
          "longitude":"123.4095648"
       },
       {
          "name":"San Remigio Municipal Hall",
          "landmark_type":"Municipal Hall",
          "location":"San Remigio",
          "latitude":"11.08390566",
          "longitude":"123.9372753"
       },
       {
          "name":"San Remigio Fire Station",
          "landmark_type":"Fire Stations",
          "location":"San Remigio",
          "latitude":"11.08256858",
          "longitude":"123.9414001"
       },
       {
          "name":"San Remigio Public Beach",
          "landmark_type":"Tourist spots",
          "location":"San Remigio",
          "latitude":"11.08236804",
          "longitude":"123.9350356"
       },
       {
          "name":"San Fernando Municipal Hall",
          "landmark_type":"Municipal Halls",
          "location":"San Fernando",
          "latitude":"10.16260078",
          "longitude":"123.7072758"
       },
       {
          "name":"San Fernando Fire Station",
          "landmark_type":"Fire Stations",
          "location":"San Fernando",
          "latitude":"10.16119479",
          "longitude":"123.7077719"
       },
       {
          "name":"San Fernando Municipal Police Station",
          "landmark_type":"Police Stations",
          "location":"San Fernando",
          "latitude":"10.16018036",
          "longitude":"123.7065721"
       },
       {
          "name":"Santa Fe Rural Health Unit",
          "landmark_type":"Health Centers",
          "location":"Santa Fe",
          "latitude":"11.17166573",
          "longitude":"123.7975935"
       },
       {
          "name":"Santa Fe Municipal Hall",
          "landmark_type":"Municipal Hall",
          "location":"Santa Fe",
          "latitude":"11.15560923",
          "longitude":"123.7926596"
       },
       {
          "name":"IFI-St. Isidore the Farmer Parish",
          "landmark_type":"Churches",
          "location":"Santa Fe",
          "latitude":"11.31829479",
          "longitude":"123.8860928"
       },
       {
          "name":"Sogod Medical Clinic",
          "landmark_type":"Health Centers",
          "location":"Sogod",
          "latitude":"10.76793835",
          "longitude":"124.0048755"
       },
       {
          "name":"Sogod Municipal Hall",
          "landmark_type":"Municipal Hall",
          "location":"Sogod",
          "latitude":"10.74744009",
          "longitude":"124.0043232"
       },
       {
          "name":"San Pedro Calungsod Parish",
          "landmark_type":"Churches",
          "location":"Sogod",
          "latitude":"10.80471302",
          "longitude":"123.9336042"
       },
       {
          "name":"Rural Health Unit Tabogon",
          "landmark_type":"Health Centers",
          "location":"Tabogon",
          "latitude":"10.93946954",
          "longitude":"124.0279085"
       },
       {
          "name":"Tabogon Municipal Hall",
          "landmark_type":"Municipal Hall",
          "location":"Tabogon",
          "latitude":"10.9400965",
          "longitude":"124.0283747"
       },
       {
          "name":"Punta Chapel",
          "landmark_type":"Churches",
          "location":"Tabogon",
          "latitude":"10.88241899",
          "longitude":"124.0505573"
       },
       {
          "name":"Tabunok Barangay Health Station",
          "landmark_type":"Health Centers",
          "location":"Tabuelan",
          "latitude":"10.83655791",
          "longitude":"123.8801982"
       },
       {
          "name":"Tabuelan Municipal Hall",
          "landmark_type":"Municipal Hall",
          "location":"Tabuelan",
          "latitude":"10.82273923",
          "longitude":"123.8725662"
       },
       {
          "name":"Cebu South Medical Center",
          "landmark_type":"Hospitals",
          "location":"Talisay",
          "latitude":"10.25378072",
          "longitude":"123.8384688"
       },
       {
          "name":"Talisay City Hall",
          "landmark_type":"City Halls",
          "location":"Talisay",
          "latitude":"10.25325673",
          "longitude":"123.8294043"
       },
       {
          "name":"Crocolandia",
          "landmark_type":"Tourist Spots",
          "location":"Talisay",
          "latitude":"10.24655827",
          "longitude":"123.8339702"
       },
       {
          "name":"Talisay City Police Station",
          "landmark_type":"Police Stations",
          "location":"Talisay",
          "latitude":"10.24247049",
          "longitude":"123.8484873"
       },
       {
          "name":"Toledo City Hall",
          "landmark_type":"City Halls",
          "location":"Toledo City",
          "latitude":"10.37992465",
          "longitude":"123.6585981"
       },
       {
          "name":"Toledo City Fire Department",
          "landmark_type":"Fire Stations",
          "location":"Toledo City",
          "latitude":"10.37526714",
          "longitude":"123.6344405"
       },
       {
          "name":"Toledo City Police Department",
          "landmark_type":"Police Stations",
          "location":"Toledo City",
          "latitude":"10.37523534",
          "longitude":"123.6345263"
       },
       {
          "name":"Toledo City Hospital",
          "landmark_type":"Hospitals",
          "location":"Toledo City",
          "latitude":"10.3723545",
          "longitude":"123.638738"
       },
       {
          "name":"Colonia Health Center",
          "landmark_type":"Health Centers",
          "location":"Tuburan",
          "latitude":"10.65514331",
          "longitude":"123.791395"
       },
       {
          "name":"Tuburan Municipal Hall",
          "landmark_type":"Municipal Hall",
          "location":"Tuburan",
          "latitude":"10.72806968",
          "longitude":"123.8242112"
       },
       {
          "name":"Cebu Technological University - Tuburan Campus",
          "landmark_type":"Schools",
          "location":"Tuburan",
          "latitude":"10.71823501",
          "longitude":"123.8195272"
       },
       {
          "landmark_type":"intersection",
          "name":null,
          "location":null,
          "latitude":10.387025879934708,
          "longitude":123.6501722105885
       },
       {
          "landmark_type":"intersection",
          "name":null,
          "location":null,
          "latitude":10.385507107482173,
          "longitude":123.65377612934604
       },
       {
          "landmark_type":"intersection",
          "name":null,
          "location":null,
          "latitude":10.374286941099712,
          "longitude":123.63286394806754
       },
       {
          "landmark_type":"intersection",
          "name":null,
          "location":null,
          "latitude":10.375953431372709,
          "longitude":123.6354381757515
       },
       {
          "landmark_type":"intersection",
          "name":null,
          "location":null,
          "latitude":10.271153490630013,
          "longitude":123.58372682019942
       },
       {
          "landmark_type":"intersection",
          "name":null,
          "location":null,
          "latitude":10.226437311325894,
          "longitude":123.55078389987744
       },
       {
          "landmark_type":"intersection",
          "name":null,
          "location":null,
          "latitude":10.216588279401165,
          "longitude":123.55091488073947
       },
       {
          "landmark_type":"intersection",
          "name":null,
          "location":null,
          "latitude":10.179013377480157,
          "longitude":123.56541715450027
       },
       {
          "landmark_type":"intersection",
          "name":null,
          "location":null,
          "latitude":10.16090227790133,
          "longitude":123.56387261788986
       },
       {
          "landmark_type":"intersection",
          "name":null,
          "location":null,
          "latitude":10.119245681419438,
          "longitude":123.59837421588257
       },
       {
          "landmark_type":"intersection",
          "name":null,
          "location":null,
          "latitude":10.126567187896464,
          "longitude":123.58031171830012
       },
       {
          "landmark_type":"intersection",
          "name":null,
          "location":null,
          "latitude":10.063406350466865,
          "longitude":123.44495960417422
       },
       {
          "landmark_type":"intersection",
          "name":null,
          "location":null,
          "latitude":10.012230453445271,
          "longitude":123.55413202434687
       },
       {
          "landmark_type":"intersection",
          "name":null,
          "location":null,
          "latitude":9.99991189368385,
          "longitude":123.41162094116561
       },
       {
          "landmark_type":"intersection",
          "name":null,
          "location":null,
          "latitude":9.981660859995895,
          "longitude":123.52919668480969
       },
       {
          "landmark_type":"intersection",
          "name":null,
          "location":null,
          "latitude":9.966571098214557,
          "longitude":123.55849607287918
       },
       {
          "landmark_type":"intersection",
          "name":null,
          "location":null,
          "latitude":9.954195403376165,
          "longitude":123.61856776214132
       },
       {
          "landmark_type":"intersection",
          "name":null,
          "location":null,
          "latitude":10.018680501708618,
          "longitude":123.55567631841762
       },
       {
          "landmark_type":"intersection",
          "name":null,
          "location":null,
          "latitude":9.868152265057597,
          "longitude":123.3956986330385
       },
       {
          "landmark_type":"intersection",
          "name":null,
          "location":null,
          "latitude":9.791304982231726,
          "longitude":123.35377671704482
       },
       {
          "landmark_type":"intersection",
          "name":null,
          "location":null,
          "latitude":9.725077804324524,
          "longitude":123.3398896121749
       },
       {
          "landmark_type":"intersection",
          "name":null,
          "location":null,
          "latitude":9.576087162391897,
          "longitude":123.31533972248207
       },
       {
          "landmark_type":"intersection",
          "name":null,
          "location":null,
          "latitude":9.527870377882063,
          "longitude":123.3065331931107
       },
       {
          "landmark_type":"intersection",
          "name":null,
          "location":null,
          "latitude":9.455588970775281,
          "longitude":123.30312695224224
       },
       {
          "landmark_type":"intersection",
          "name":null,
          "location":null,
          "latitude":9.416979433751148,
          "longitude":123.33822298716713
       },
       {
          "landmark_type":"intersection",
          "name":null,
          "location":null,
          "latitude":9.476395443978694,
          "longitude":123.38614936771654
       },
       {
          "landmark_type":"intersection",
          "name":null,
          "location":null,
          "latitude":9.76402692290951,
          "longitude":123.53329840911782
       },
       {
          "landmark_type":"intersection",
          "name":null,
          "location":null,
          "latitude":9.882718310816099,
          "longitude":123.60588661574197
       },
       {
          "landmark_type":"intersection",
          "name":null,
          "location":null,
          "latitude":10.023724963921362,
          "longitude":123.60286333901414
       },
       {
          "landmark_type":"intersection",
          "name":null,
          "location":null,
          "latitude":10.015476813577758,
          "longitude":123.61935226360568
       },
       {
          "landmark_type":"intersection",
          "name":null,
          "location":null,
          "latitude":10.038886722150954,
          "longitude":123.62094702895742
       },
       {
          "landmark_type":"intersection",
          "name":null,
          "location":null,
          "latitude":10.10457093529214,
          "longitude":123.63338437424828
       },
       {
          "landmark_type":"intersection",
          "name":null,
          "location":null,
          "latitude":10.100409572453785,
          "longitude":123.63873662264116
       },
       {
          "landmark_type":"intersection",
          "name":null,
          "location":null,
          "latitude":10.10332316547634,
          "longitude":123.64036696684103
       },
       {
          "landmark_type":"intersection",
          "name":null,
          "location":null,
          "latitude":10.109082459720748,
          "longitude":123.6462555444292
       },
       {
          "landmark_type":"intersection",
          "name":null,
          "location":null,
          "latitude":10.108860754133334,
          "longitude":123.6497953991197
       },
       {
          "landmark_type":"intersection",
          "name":null,
          "location":null,
          "latitude":10.13321944303754,
          "longitude":123.68777890608635
       },
       {
          "landmark_type":"intersection",
          "name":null,
          "location":null,
          "latitude":10.204326809868526,
          "longitude":123.75470537098906
       },
       {
          "landmark_type":"intersection",
          "name":null,
          "location":null,
          "latitude":10.22957836955759,
          "longitude":123.73280930936505
       },
       {
          "landmark_type":"intersection",
          "name":null,
          "location":null,
          "latitude":10.309043480717802,
          "longitude":123.69595790505385
       },
       {
          "landmark_type":"intersection",
          "name":null,
          "location":null,
          "latitude":10.313896271660584,
          "longitude":123.69514273295391
       },
       {
          "landmark_type":"intersection",
          "name":null,
          "location":null,
          "latitude":10.251138659487346,
          "longitude":123.80549722564145
       },
       {
          "landmark_type":"intersection",
          "name":null,
          "location":null,
          "latitude":10.253312273539894,
          "longitude":123.80825379445302
       },
       {
          "landmark_type":"intersection",
          "name":null,
          "location":null,
          "latitude":10.258506058681368,
          "longitude":123.82413560909
       },
       {
          "landmark_type":"intersection",
          "name":null,
          "location":null,
          "latitude":10.253229900139218,
          "longitude":123.85661310028182
       },
       {
          "landmark_type":"intersection",
          "name":null,
          "location":null,
          "latitude":10.289852252848227,
          "longitude":123.87076994481322
       },
       {
          "landmark_type":"intersection",
          "name":null,
          "location":null,
          "latitude":10.290569670321524,
          "longitude":123.87645469761529
       },
       {
          "landmark_type":"intersection",
          "name":null,
          "location":null,
          "latitude":10.291118282582985,
          "longitude":123.87722696592047
       },
       {
          "landmark_type":"intersection",
          "name":null,
          "location":null,
          "latitude":10.290717373716518,
          "longitude":123.87757019627836
       },
       {
          "landmark_type":"intersection",
          "name":null,
          "location":null,
          "latitude":10.2818775103701,
          "longitude":123.88345707418382
       },
       {
          "landmark_type":"intersection",
          "name":null,
          "location":null,
          "latitude":10.29958679720276,
          "longitude":123.87881500689991
       },
       {
          "landmark_type":"intersection",
          "name":null,
          "location":null,
          "latitude":10.298031076738269,
          "longitude":123.88503083229413
       },
       {
          "landmark_type":"intersection",
          "name":null,
          "location":null,
          "latitude":10.296722874591609,
          "longitude":123.88580310059932
       },
       {
          "landmark_type":"intersection",
          "name":null,
          "location":null,
          "latitude":10.297229276066325,
          "longitude":123.88822716500174
       },
       {
          "landmark_type":"intersection",
          "name":null,
          "location":null,
          "latitude":10.288429929875356,
          "longitude":123.89663352533847
       },
       {
          "landmark_type":"intersection",
          "name":null,
          "location":null,
          "latitude":10.296321467937355,
          "longitude":123.89817806194884
       },
       {
          "landmark_type":"intersection",
          "name":null,
          "location":null,
          "latitude":10.299591967291096,
          "longitude":123.89680514051743
       },
       {
          "landmark_type":"intersection",
          "name":null,
          "location":null,
          "latitude":10.291106716900211,
          "longitude":123.90307287149625
       },
       {
          "landmark_type":"intersection",
          "name":null,
          "location":null,
          "latitude":10.293557342039296,
          "longitude":123.90450637167193
       },
       {
          "landmark_type":"intersection",
          "name":null,
          "location":null,
          "latitude":10.300004036900145,
          "longitude":123.90632164441598
       },
       {
          "landmark_type":"intersection",
          "name":null,
          "location":null,
          "latitude":10.300230860300985,
          "longitude":123.9063913630824
       },
       {
          "landmark_type":"intersection",
          "name":null,
          "location":null,
          "latitude":10.29947126501452,
          "longitude":123.9038761281162
       },
       {
          "landmark_type":"intersection",
          "name":null,
          "location":null,
          "latitude":10.29844791847128,
          "longitude":123.9036937869886
       },
       {
          "landmark_type":"intersection",
          "name":null,
          "location":null,
          "latitude":10.30027833494564,
          "longitude":123.90378495755242
       },
       {
          "landmark_type":"intersection",
          "name":null,
          "location":null,
          "latitude":10.30372730148161,
          "longitude":123.91270244592882
       },
       {
          "landmark_type":"intersection",
          "name":null,
          "location":null,
          "latitude":10.308706770005475,
          "longitude":123.90714640451093
       },
       {
          "landmark_type":"intersection",
          "name":null,
          "location":null,
          "latitude":10.306765630618184,
          "longitude":123.90553751220845
       },
       {
          "landmark_type":"intersection",
          "name":null,
          "location":null,
          "latitude":10.306364741645972,
          "longitude":123.90613816533474
       },
       {
          "landmark_type":"intersection",
          "name":null,
          "location":null,
          "latitude":10.310668996576533,
          "longitude":123.903928619906
       },
       {
          "landmark_type":"intersection",
          "name":null,
          "location":null,
          "latitude":10.309719533633098,
          "longitude":123.89307395983862
       },
       {
          "landmark_type":"intersection",
          "name":null,
          "location":null,
          "latitude":10.308010493122678,
          "longitude":123.88665984252607
       },
       {
          "landmark_type":"intersection",
          "name":null,
          "location":null,
          "latitude":10.313247331740858,
          "longitude":123.90267791969124
       },
       {
          "landmark_type":"intersection",
          "name":null,
          "location":null,
          "latitude":10.315746335281574,
          "longitude":123.88538854442272
       },
       {
          "landmark_type":"intersection",
          "name":null,
          "location":null,
          "latitude":10.316168311088497,
          "longitude":123.89096603773798
       },
       {
          "landmark_type":"intersection",
          "name":null,
          "location":null,
          "latitude":10.318657956834052,
          "longitude":123.89989002704239
       },
       {
          "landmark_type":"intersection",
          "name":null,
          "location":null,
          "latitude":10.314311613306987,
          "longitude":123.91473474001988
       },
       {
          "landmark_type":"intersection",
          "name":null,
          "location":null,
          "latitude":10.308910248416495,
          "longitude":123.91915383087738
       },
       {
          "landmark_type":"intersection",
          "name":null,
          "location":null,
          "latitude":10.310724779767693,
          "longitude":123.92159934717711
       },
       {
          "landmark_type":"intersection",
          "name":null,
          "location":null,
          "latitude":10.320634981146052,
          "longitude":123.91073581551139
       },
       {
          "landmark_type":"intersection",
          "name":null,
          "location":null,
          "latitude":10.320471844019444,
          "longitude":123.9260324822334
       },
       {
          "landmark_type":"intersection",
          "name":null,
          "location":null,
          "latitude":10.319353622185112,
          "longitude":123.93075189965397
       },
       {
          "landmark_type":"intersection",
          "name":null,
          "location":null,
          "latitude":10.323078298843889,
          "longitude":123.92447629171015
       },
       {
          "landmark_type":"intersection",
          "name":null,
          "location":null,
          "latitude":10.327603328539142,
          "longitude":123.92180484152145
       },
       {
          "landmark_type":"intersection",
          "name":null,
          "location":null,
          "latitude":10.332131806404115,
          "longitude":123.9355715146934
       },
       {
          "landmark_type":"intersection",
          "name":null,
          "location":null,
          "latitude":10.335159312541823,
          "longitude":123.93979753847456
       },
       {
          "landmark_type":"intersection",
          "name":null,
          "location":null,
          "latitude":10.330428805229547,
          "longitude":123.94786259466085
       },
       {
          "landmark_type":"intersection",
          "name":null,
          "location":null,
          "latitude":10.314582016790514,
          "longitude":123.95844845182741
       },
       {
          "landmark_type":"intersection",
          "name":null,
          "location":null,
          "latitude":10.322388506511675,
          "longitude":123.96956053466319
       },
       {
          "landmark_type":"intersection",
          "name":null,
          "location":null,
          "latitude":10.33870706309575,
          "longitude":123.9551163876002
       },
       {
          "landmark_type":"intersection",
          "name":null,
          "location":null,
          "latitude":10.341531920072146,
          "longitude":123.94729393170117
       },
       {
          "landmark_type":"intersection",
          "name":null,
          "location":null,
          "latitude":10.274893853755499,
          "longitude":123.97533956792638
       },
       {
          "landmark_type":"intersection",
          "name":null,
          "location":null,
          "latitude":10.272192845441992,
          "longitude":123.9456501419714
       },
       {
          "landmark_type":"intersection",
          "name":null,
          "location":null,
          "latitude":10.26683296374592,
          "longitude":123.96521427236948
       },
       {
          "landmark_type":"intersection",
          "name":null,
          "location":null,
          "latitude":10.31049867644685,
          "longitude":124.00756911849392
       },
       {
          "landmark_type":"intersection",
          "name":null,
          "location":null,
          "latitude":10.319423492998217,
          "longitude":123.99495540284249
       },
       {
          "landmark_type":"intersection",
          "name":null,
          "location":null,
          "latitude":10.309928998716195,
          "longitude":123.98588125025655
       },
       {
          "landmark_type":"intersection",
          "name":null,
          "location":null,
          "latitude":10.36187897884013,
          "longitude":123.94976686200323
       },
       {
          "landmark_type":"intersection",
          "name":null,
          "location":null,
          "latitude":10.343595705579947,
          "longitude":123.91228536749455
       },
       {
          "landmark_type":"intersection",
          "name":null,
          "location":null,
          "latitude":10.33954506785889,
          "longitude":123.92459875658282
       },
       {
          "landmark_type":"intersection",
          "name":null,
          "location":null,
          "latitude":10.344080934718477,
          "longitude":123.92910365502975
       },
       {
          "landmark_type":"intersection",
          "name":null,
          "location":null,
          "latitude":10.347604097705707,
          "longitude":123.92732314754836
       },
       {
          "landmark_type":"intersection",
          "name":null,
          "location":null,
          "latitude":10.312890990604096,
          "longitude":123.95958574361852
       },
       {
          "landmark_type":"intersection",
          "name":null,
          "location":null,
          "latitude":10.309574496482426,
          "longitude":123.94825420006438
       },
       {
          "landmark_type":"intersection",
          "name":null,
          "location":null,
          "latitude":10.311970000303715,
          "longitude":123.95451510437123
       },
       {
          "landmark_type":"intersection",
          "name":null,
          "location":null,
          "latitude":10.399227246848115,
          "longitude":124.0001922817629
       },
       {
          "landmark_type":"intersection",
          "name":null,
          "location":null,
          "latitude":10.451888562347749,
          "longitude":124.01219973477036
       },
       {
          "landmark_type":"intersection",
          "name":null,
          "location":null,
          "latitude":10.461293027044533,
          "longitude":124.01512693705291
       },
       {
          "landmark_type":"intersection",
          "name":null,
          "location":null,
          "latitude":10.482957708039827,
          "longitude":124.02353829255082
       },
       {
          "landmark_type":"intersection",
          "name":null,
          "location":null,
          "latitude":10.510442088759001,
          "longitude":124.02695039157867
       },
       {
          "landmark_type":"intersection",
          "name":null,
          "location":null,
          "latitude":10.523980829242811,
          "longitude":124.02592254842598
       },
       {
          "landmark_type":"intersection",
          "name":null,
          "location":null,
          "latitude":10.525235366823226,
          "longitude":124.02442091561035
       },
       {
          "landmark_type":"intersection",
          "name":null,
          "location":null,
          "latitude":10.527703363117588,
          "longitude":124.0212236618297
       },
       {
          "landmark_type":"intersection",
          "name":null,
          "location":null,
          "latitude":10.532341908003861,
          "longitude":124.02536387802138
       },
       {
          "landmark_type":"intersection",
          "name":null,
          "location":null,
          "latitude":10.720881127317215,
          "longitude":124.01207984944119
       },
       {
          "landmark_type":"intersection",
          "name":null,
          "location":null,
          "latitude":10.749115113572104,
          "longitude":124.00401393603146
       },
       {
          "landmark_type":"intersection",
          "name":null,
          "location":null,
          "latitude":10.733400174251093,
          "longitude":123.83145255676584
       },
       {
          "landmark_type":"intersection",
          "name":null,
          "location":null,
          "latitude":10.81100273197832,
          "longitude":123.9907318666705
       },
       {
          "landmark_type":"intersection",
          "name":null,
          "location":null,
          "latitude":10.824483914910235,
          "longitude":123.87077285659797
       },
       {
          "landmark_type":"intersection",
          "name":null,
          "location":null,
          "latitude":10.906126569597289,
          "longitude":123.97115953612341
       },
       {
          "landmark_type":"intersection",
          "name":null,
          "location":null,
          "latitude":11.039062487834705,
          "longitude":124.00279826219393
       },
       {
          "landmark_type":"intersection",
          "name":null,
          "location":null,
          "latitude":11.046218939485124,
          "longitude":124.00266955080976
       },
       {
          "landmark_type":"intersection",
          "name":null,
          "location":null,
          "latitude":11.055972280625747,
          "longitude":123.98181872235185
       },
       {
          "landmark_type":"intersection",
          "name":null,
          "location":null,
          "latitude":11.062496911595808,
          "longitude":123.97207956094755
       },
       {
          "landmark_type":"intersection",
          "name":null,
          "location":null,
          "latitude":11.078534257918891,
          "longitude":123.93698425685622
       },
       {
          "landmark_type":"intersection",
          "name":null,
          "location":null,
          "latitude":11.080812928027159,
          "longitude":123.9752067680172
       },
       {
          "landmark_type":"intersection",
          "name":null,
          "location":null,
          "latitude":11.13729397968504,
          "longitude":124.00189292834092
       },
       {
          "landmark_type":"intersection",
          "name":null,
          "location":null,
          "latitude":11.24979973222952,
          "longitude":124.00117334626174
       },
       {
          "landmark_type":"intersection",
          "name":null,
          "location":null,
          "latitude":11.078533501258203,
          "longitude":123.94032752475859
       },
       {
          "landmark_type":"intersection",
          "name":null,
          "location":null,
          "latitude":11.083247724688125,
          "longitude":123.93627311615631
       },
       {
          "landmark_type":"intersection",
          "name":null,
          "location":null,
          "latitude":9.887530901362657,
          "longitude":123.6044186788777
       },
       {
          "landmark_type":"intersection",
          "name":null,
          "location":null,
          "latitude":10.025361149979402,
          "longitude":123.51499070105983
       },
       {
          "landmark_type":"intersection",
          "name":null,
          "location":null,
          "latitude":11.129402122817943,
          "longitude":123.96296462967591
       },
       {
          "landmark_type":"intersection",
          "name":null,
          "location":null,
          "latitude":10.837015674459714,
          "longitude":124.02922863820098
       },
       {
          "landmark_type":"intersection",
          "name":null,
          "location":null,
          "latitude":10.839069309262426,
          "longitude":124.03079462670873
       },
       {
          "landmark_type":"intersection",
          "name":null,
          "location":null,
          "latitude":10.77248488822533,
          "longitude":124.00625069656084
       },
       {
          "landmark_type":"intersection",
          "name":null,
          "location":null,
          "latitude":10.522962887135428,
          "longitude":124.02721557095644
       },
       {
          "landmark_type":"intersection",
          "name":null,
          "location":null,
          "latitude":10.522599174505896,
          "longitude":124.02498457363035
       },
       {
          "landmark_type":"intersection",
          "name":null,
          "location":null,
          "latitude":10.519979809324429,
          "longitude":124.02893490286351
       },
       {
          "landmark_type":"intersection",
          "name":null,
          "location":null,
          "latitude":10.518841218218688,
          "longitude":124.02421548544294
       },
       {
          "landmark_type":"intersection",
          "name":null,
          "location":null,
          "latitude":10.469216447017878,
          "longitude":123.98534785752307
       },
       {
          "landmark_type":"intersection",
          "name":null,
          "location":null,
          "latitude":10.456120451478554,
          "longitude":124.01021569412784
       },
       {
          "landmark_type":"intersection",
          "name":null,
          "location":null,
          "latitude":10.453202106621964,
          "longitude":124.0090890450718
       },
       {
          "landmark_type":"intersection",
          "name":null,
          "location":null,
          "latitude":10.254945743657636,
          "longitude":123.82858348131546
       },
       {
          "landmark_type":"intersection",
          "name":null,
          "location":null,
          "latitude":10.253341921642921,
          "longitude":123.82798282818923
       },
       {
          "landmark_type":"intersection",
          "name":null,
          "location":null,
          "latitude":10.252286771151745,
          "longitude":123.83913781481972
       },
       {
          "landmark_type":"intersection",
          "name":null,
          "location":null,
          "latitude":10.24878364631896,
          "longitude":123.83900910343552
       },
       {
          "landmark_type":"intersection",
          "name":null,
          "location":null,
          "latitude":10.24456296255458,
          "longitude":123.83918071861443
       },
       {
          "landmark_type":"intersection",
          "name":null,
          "location":null,
          "latitude":10.2569716124876,
          "longitude":123.86011777044396
       },
       {
          "landmark_type":"intersection",
          "name":null,
          "location":null,
          "latitude":10.242452599598588,
          "longitude":123.84698920925578
       },
       {
          "landmark_type":"intersection",
          "name":null,
          "location":null,
          "latitude":9.744657687715852,
          "longitude":123.37177708983653
       },
       {
          "landmark_type":"intersection",
          "name":null,
          "location":null,
          "latitude":9.820103930268735,
          "longitude":123.46757582627606
       },
       {
          "landmark_type":"intersection",
          "name":null,
          "location":null,
          "latitude":9.808777394365002,
          "longitude":123.46482998341318
       },
       {
          "landmark_type":"intersection",
          "name":null,
          "location":null,
          "latitude":11.249862613893072,
          "longitude":124.00045701937212
       },
       {
          "landmark_type":"intersection",
          "name":null,
          "location":null,
          "latitude":11.250782823385839,
          "longitude":124.00130436931809
       },
       {
          "landmark_type":"intersection",
          "name":null,
          "location":null,
          "latitude":11.2499467474545,
          "longitude":123.99953995075968
       },
       {
          "landmark_type":"intersection",
          "name":null,
          "location":null,
          "latitude":11.250982639915772,
          "longitude":123.99963112132349
       },
       {
          "landmark_type":"intersection",
          "name":null,
          "location":null,
          "latitude":11.250535681696546,
          "longitude":123.99960430645181
       },
       {
          "landmark_type":"intersection",
          "name":null,
          "location":null,
          "latitude":10.938039695682917,
          "longitude":124.00529721543757
       },
       {
          "landmark_type":"intersection",
          "name":null,
          "location":null,
          "latitude":10.369350573004015,
          "longitude":123.916906666862
       },
       {
          "landmark_type":"intersection",
          "name":null,
          "location":null,
          "latitude":10.331005789849685,
          "longitude":123.8982360378484
       },
       {
          "landmark_type":"intersection",
          "name":null,
          "location":null,
          "latitude":10.325862108786298,
          "longitude":123.90754616130543
       },
       {
          "landmark_type":"intersection",
          "name":null,
          "location":null,
          "latitude":10.389600627538043,
          "longitude":124.00118317922208
       },
       {
          "landmark_type":"intersection",
          "name":null,
          "location":null,
          "latitude":10.292009677082563,
          "longitude":123.9038392095254
       },
       {
          "landmark_type":"intersection",
          "name":null,
          "location":null,
          "latitude":10.294763266436911,
          "longitude":123.90146877486644
       },
       {
          "landmark_type":"intersection",
          "name":null,
          "location":null,
          "latitude":10.292357833385607,
          "longitude":123.90102901097043
       },
       {
          "landmark_type":"intersection",
          "name":null,
          "location":null,
          "latitude":9.824557621299771,
          "longitude":123.3733427903785
       }
    ]
 }